{"type":"FeatureCollection","features":[{"type":"Feature","properties":{"Country name":"Afghanistan","Regional indicator":"South Asia","Ladder score":2.523,"Logged GDP per capita":7.695,"Social support":0.463,"Healthy life expectancy":52.493,"Freedom to make life choices":0.382,"Generosity":-0.102,"Perceptions of corruption":0.924},"geometry":{"type":"Point","coordinates":[66.51551,34.159326]}},{"type":"Feature","properties":{"Country name":"Albania","Regional indicator":"Central and Eastern Europe","Ladder score":5.117,"Logged GDP per capita":9.52,"Social support":0.697,"Healthy life expectancy":68.999,"Freedom to make life choices":0.785,"Generosity":-0.03,"Perceptions of corruption":0.901},"geometry":{"type":"Point","coordinates":[20.127352,40.647186]}},{"type":"Feature","properties":{"Country name":"Algeria","Regional indicator":"Middle East and North Africa","Ladder score":4.887,"Logged GDP per capita":9.342,"Social support":0.802,"Healthy life expectancy":66.005,"Freedom to make life choices":0.48,"Generosity":-0.067,"Perceptions of corruption":0.752},"geometry":{"type":"Point","coordinates":[3.379277,27.89689]}},{"type":"Feature","properties":{"Country name":"Argentina","Regional indicator":"Latin America and Caribbean","Ladder score":5.929,"Logged GDP per capita":9.962,"Social support":0.898,"Healthy life expectancy":69,"Freedom to make life choices":0.828,"Generosity":-0.182,"Perceptions of corruption":0.834},"geometry":{"type":"Point","coordinates":[-64.168459,-33.528049]}},{"type":"Feature","properties":{"Country name":"Armenia","Regional indicator":"Commonwealth of Independent States","Ladder score":5.283,"Logged GDP per capita":9.487,"Social support":0.799,"Healthy life expectancy":67.055,"Freedom to make life choices":0.825,"Generosity":-0.168,"Perceptions of corruption":0.629},"geometry":{"type":"Point","coordinates":[44.80561,40.474724]}},{"type":"Feature","properties":{"Country name":"Australia","Regional indicator":"North America and ANZ","Ladder score":7.183,"Logged GDP per capita":10.796,"Social support":0.94,"Healthy life expectancy":73.9,"Freedom to make life choices":0.914,"Generosity":0.159,"Perceptions of corruption":0.442},"geometry":{"type":"Point","coordinates":[134.050443,-23.992438]}},{"type":"Feature","properties":{"Country name":"Austria","Regional indicator":"Western Europe","Ladder score":7.268,"Logged GDP per capita":10.906,"Social support":0.934,"Healthy life expectancy":73.3,"Freedom to make life choices":0.908,"Generosity":0.042,"Perceptions of corruption":0.481},"geometry":{"type":"Point","coordinates":[14.143702,47.522617]}},{"type":"Feature","properties":{"Country name":"Azerbaijan","Regional indicator":"Commonwealth of Independent States","Ladder score":5.171,"Logged GDP per capita":9.569,"Social support":0.836,"Healthy life expectancy":65.656,"Freedom to make life choices":0.814,"Generosity":-0.223,"Perceptions of corruption":0.506},"geometry":{"type":"Point","coordinates":[47.210994,40.402387]}},{"type":"Feature","properties":{"Country name":"Bahrain","Regional indicator":"Middle East and North Africa","Ladder score":6.647,"Logged GDP per capita":10.669,"Social support":0.862,"Healthy life expectancy":69.495,"Freedom to make life choices":0.925,"Generosity":0.089,"Perceptions of corruption":0.722},"geometry":{"type":"Point","coordinates":[50.551925,26.020458]}},{"type":"Feature","properties":{"Country name":"Bangladesh","Regional indicator":"South Asia","Ladder score":5.025,"Logged GDP per capita":8.454,"Social support":0.693,"Healthy life expectancy":64.8,"Freedom to make life choices":0.877,"Generosity":-0.041,"Perceptions of corruption":0.682},"geometry":{"type":"Point","coordinates":[90.032723,24.045958]}},{"type":"Feature","properties":{"Country name":"Belarus","Regional indicator":"Commonwealth of Independent States","Ladder score":5.534,"Logged GDP per capita":9.853,"Social support":0.91,"Healthy life expectancy":66.253,"Freedom to make life choices":0.65,"Generosity":-0.18,"Perceptions of corruption":0.627},"geometry":{"type":"Point","coordinates":[28.43651,53.832259]}},{"type":"Feature","properties":{"Country name":"Belgium","Regional indicator":"Western Europe","Ladder score":6.834,"Logged GDP per capita":10.823,"Social support":0.906,"Healthy life expectancy":72.199,"Freedom to make life choices":0.783,"Generosity":-0.153,"Perceptions of corruption":0.646},"geometry":{"type":"Point","coordinates":[4.792712,50.780688]}},{"type":"Feature","properties":{"Country name":"Benin","Regional indicator":"Sub-Saharan Africa","Ladder score":5.045,"Logged GDP per capita":8.087,"Social support":0.489,"Healthy life expectancy":54.713,"Freedom to make life choices":0.757,"Generosity":-0.034,"Perceptions of corruption":0.661},"geometry":{"type":"Point","coordinates":[2.362221,10.330607]}},{"type":"Feature","properties":{"Country name":"Bolivia","Regional indicator":"Latin America and Caribbean","Ladder score":5.716,"Logged GDP per capita":9.046,"Social support":0.81,"Healthy life expectancy":63.901,"Freedom to make life choices":0.875,"Generosity":-0.077,"Perceptions of corruption":0.839},"geometry":{"type":"Point","coordinates":[-64.661928,-16.640652]}},{"type":"Feature","properties":{"Country name":"Bosnia and Herzegovina","Regional indicator":"Central and Eastern Europe","Ladder score":5.813,"Logged GDP per capita":9.59,"Social support":0.87,"Healthy life expectancy":68.098,"Freedom to make life choices":0.706,"Generosity":0.113,"Perceptions of corruption":0.931},"geometry":{"type":"Point","coordinates":[18.06843,44.091039]}},{"type":"Feature","properties":{"Country name":"Botswana","Regional indicator":"Sub-Saharan Africa","Ladder score":3.467,"Logged GDP per capita":9.782,"Social support":0.784,"Healthy life expectancy":59.269,"Freedom to make life choices":0.824,"Generosity":-0.246,"Perceptions of corruption":0.801},"geometry":{"type":"Point","coordinates":[24.191388,-22.108313]}},{"type":"Feature","properties":{"Country name":"Brazil","Regional indicator":"Latin America and Caribbean","Ladder score":6.33,"Logged GDP per capita":9.577,"Social support":0.882,"Healthy life expectancy":66.601,"Freedom to make life choices":0.804,"Generosity":-0.071,"Perceptions of corruption":0.756},"geometry":{"type":"Point","coordinates":[-49.542449,-11.928923]}},{"type":"Feature","properties":{"Country name":"Bulgaria","Regional indicator":"Central and Eastern Europe","Ladder score":5.266,"Logged GDP per capita":10.016,"Social support":0.931,"Healthy life expectancy":67,"Freedom to make life choices":0.788,"Generosity":-0.096,"Perceptions of corruption":0.932},"geometry":{"type":"Point","coordinates":[25.176846,42.501868]}},{"type":"Feature","properties":{"Country name":"Burkina Faso","Regional indicator":"Sub-Saharan Africa","Ladder score":4.834,"Logged GDP per capita":7.678,"Social support":0.672,"Healthy life expectancy":54.151,"Freedom to make life choices":0.695,"Generosity":-0.009,"Perceptions of corruption":0.748},"geometry":{"type":"Point","coordinates":[-1.473625,12.655182]}},{"type":"Feature","properties":{"Country name":"Burundi","Regional indicator":"Sub-Saharan Africa","Ladder score":3.775,"Logged GDP per capita":6.635,"Social support":0.49,"Healthy life expectancy":53.4,"Freedom to make life choices":0.626,"Generosity":-0.024,"Perceptions of corruption":0.607},"geometry":{"type":"Point","coordinates":[29.877803,-3.397104]}},{"type":"Feature","properties":{"Country name":"Cambodia","Regional indicator":"Southeast Asia","Ladder score":4.83,"Logged GDP per capita":8.36,"Social support":0.765,"Healthy life expectancy":62,"Freedom to make life choices":0.959,"Generosity":0.034,"Perceptions of corruption":0.843},"geometry":{"type":"Point","coordinates":[104.480812,12.635759]}},{"type":"Feature","properties":{"Country name":"Cameroon","Regional indicator":"Sub-Saharan Africa","Ladder score":5.142,"Logged GDP per capita":8.189,"Social support":0.71,"Healthy life expectancy":53.515,"Freedom to make life choices":0.731,"Generosity":0.026,"Perceptions of corruption":0.848},"geometry":{"type":"Point","coordinates":[12.473672,4.585076]}},{"type":"Feature","properties":{"Country name":"Canada","Regional indicator":"North America and ANZ","Ladder score":7.103,"Logged GDP per capita":10.776,"Social support":0.926,"Healthy life expectancy":73.8,"Freedom to make life choices":0.915,"Generosity":0.089,"Perceptions of corruption":0.415},"geometry":{"type":"Point","coordinates":[-112.384858,58.33747]}},{"type":"Feature","properties":{"Country name":"Chad","Regional indicator":"Sub-Saharan Africa","Ladder score":4.355,"Logged GDP per capita":7.364,"Social support":0.619,"Healthy life expectancy":48.478,"Freedom to make life choices":0.579,"Generosity":0.041,"Perceptions of corruption":0.807},"geometry":{"type":"Point","coordinates":[18.76924,15.21002]}},{"type":"Feature","properties":{"Country name":"Chile","Regional indicator":"Latin America and Caribbean","Ladder score":6.172,"Logged GDP per capita":10.071,"Social support":0.882,"Healthy life expectancy":70,"Freedom to make life choices":0.742,"Generosity":-0.044,"Perceptions of corruption":0.83},"geometry":{"type":"Point","coordinates":[-72.288079,-38.165295]}},{"type":"Feature","properties":{"Country name":"China","Regional indicator":"East Asia","Ladder score":5.339,"Logged GDP per capita":9.673,"Social support":0.811,"Healthy life expectancy":69.593,"Freedom to make life choices":0.904,"Generosity":-0.146,"Perceptions of corruption":0.755},"geometry":{"type":"Point","coordinates":[106.431983,32.523743]}},{"type":"Feature","properties":{"Country name":"Colombia","Regional indicator":"Latin America and Caribbean","Ladder score":6.012,"Logged GDP per capita":9.557,"Social support":0.847,"Healthy life expectancy":68.001,"Freedom to make life choices":0.837,"Generosity":-0.135,"Perceptions of corruption":0.841},"geometry":{"type":"Point","coordinates":[-73.166783,3.420497]}},{"type":"Feature","properties":{"Country name":"Comoros","Regional indicator":"Sub-Saharan Africa","Ladder score":4.289,"Logged GDP per capita":8.031,"Social support":0.626,"Healthy life expectancy":57.349,"Freedom to make life choices":0.548,"Generosity":0.082,"Perceptions of corruption":0.781},"geometry":{"type":"Point","coordinates":[43.318094,-11.727683]}},{"type":"Feature","properties":{"Country name":"Costa Rica","Regional indicator":"Latin America and Caribbean","Ladder score":7.069,"Logged GDP per capita":9.88,"Social support":0.891,"Healthy life expectancy":71.4,"Freedom to make life choices":0.934,"Generosity":-0.126,"Perceptions of corruption":0.809},"geometry":{"type":"Point","coordinates":[-84.028584,10.068183]}},{"type":"Feature","properties":{"Country name":"Croatia","Regional indicator":"Central and Eastern Europe","Ladder score":5.882,"Logged GDP per capita":10.217,"Social support":0.924,"Healthy life expectancy":70.799,"Freedom to make life choices":0.754,"Generosity":-0.118,"Perceptions of corruption":0.939},"geometry":{"type":"Point","coordinates":[16.375139,45.805356]}},{"type":"Feature","properties":{"Country name":"Cyprus","Regional indicator":"Western Europe","Ladder score":6.223,"Logged GDP per capita":10.576,"Social support":0.802,"Healthy life expectancy":73.898,"Freedom to make life choices":0.763,"Generosity":-0.015,"Perceptions of corruption":0.844},"geometry":{"type":"Point","coordinates":[33.011051,34.881852]}},{"type":"Feature","properties":{"Country name":"Czechia","Regional indicator":"Central and Eastern Europe","Ladder score":6.965,"Logged GDP per capita":10.556,"Social support":0.947,"Healthy life expectancy":70.807,"Freedom to make life choices":0.858,"Generosity":-0.208,"Perceptions of corruption":0.868},"geometry":{"type":"Point","coordinates":[15.377705,49.88233]}},{"type":"Feature","properties":{"Country name":"Denmark","Regional indicator":"Western Europe","Ladder score":7.62,"Logged GDP per capita":10.933,"Social support":0.954,"Healthy life expectancy":72.7,"Freedom to make life choices":0.946,"Generosity":0.03,"Perceptions of corruption":0.179},"geometry":{"type":"Point","coordinates":[9.018163,55.966966]}},{"type":"Feature","properties":{"Country name":"Dominican Republic","Regional indicator":"Latin America and Caribbean","Ladder score":5.545,"Logged GDP per capita":9.802,"Social support":0.853,"Healthy life expectancy":66.102,"Freedom to make life choices":0.86,"Generosity":-0.133,"Perceptions of corruption":0.714},"geometry":{"type":"Point","coordinates":[-70.804224,19.105937]}},{"type":"Feature","properties":{"Country name":"Ecuador","Regional indicator":"Latin America and Caribbean","Ladder score":5.764,"Logged GDP per capita":9.313,"Social support":0.821,"Healthy life expectancy":68.8,"Freedom to make life choices":0.842,"Generosity":-0.124,"Perceptions of corruption":0.843},"geometry":{"type":"Point","coordinates":[-78.322784,-1.241567]}},{"type":"Feature","properties":{"Country name":"Egypt","Regional indicator":"Middle East and North Africa","Ladder score":4.283,"Logged GDP per capita":9.367,"Social support":0.75,"Healthy life expectancy":61.998,"Freedom to make life choices":0.749,"Generosity":-0.182,"Perceptions of corruption":0.795},"geometry":{"type":"Point","coordinates":[29.227089,26.42231]}},{"type":"Feature","properties":{"Country name":"El Salvador","Regional indicator":"Latin America and Caribbean","Ladder score":6.061,"Logged GDP per capita":9.054,"Social support":0.762,"Healthy life expectancy":66.402,"Freedom to make life choices":0.888,"Generosity":-0.11,"Perceptions of corruption":0.688},"geometry":{"type":"Point","coordinates":[-89.27004,13.66845]}},{"type":"Feature","properties":{"Country name":"Estonia","Regional indicator":"Central and Eastern Europe","Ladder score":6.189,"Logged GDP per capita":10.481,"Social support":0.941,"Healthy life expectancy":68.8,"Freedom to make life choices":0.909,"Generosity":-0.106,"Perceptions of corruption":0.527},"geometry":{"type":"Point","coordinates":[25.867131,58.722853]}},{"type":"Feature","properties":{"Country name":"Ethiopia","Regional indicator":"Sub-Saharan Africa","Ladder score":4.275,"Logged GDP per capita":7.694,"Social support":0.764,"Healthy life expectancy":59,"Freedom to make life choices":0.752,"Generosity":0.082,"Perceptions of corruption":0.761},"geometry":{"type":"Point","coordinates":[38.896778,7.996115]}},{"type":"Feature","properties":{"Country name":"Finland","Regional indicator":"Western Europe","Ladder score":7.842,"Logged GDP per capita":10.775,"Social support":0.954,"Healthy life expectancy":72,"Freedom to make life choices":0.949,"Generosity":-0.098,"Perceptions of corruption":0.186},"geometry":{"type":"Point","coordinates":[27.276469,63.252357]}},{"type":"Feature","properties":{"Country name":"France","Regional indicator":"Western Europe","Ladder score":6.69,"Logged GDP per capita":10.704,"Social support":0.942,"Healthy life expectancy":74,"Freedom to make life choices":0.822,"Generosity":-0.147,"Perceptions of corruption":0.571},"geometry":{"type":"Point","coordinates":[2.549047,46.698481]}},{"type":"Feature","properties":{"Country name":"Gabon","Regional indicator":"Sub-Saharan Africa","Ladder score":4.852,"Logged GDP per capita":9.603,"Social support":0.776,"Healthy life expectancy":59.962,"Freedom to make life choices":0.731,"Generosity":-0.2,"Perceptions of corruption":0.84},"geometry":{"type":"Point","coordinates":[11.547829,-0.586328]}},{"type":"Feature","properties":{"Country name":"Gambia","Regional indicator":"Sub-Saharan Africa","Ladder score":5.051,"Logged GDP per capita":7.686,"Social support":0.69,"Healthy life expectancy":55.16,"Freedom to make life choices":0.697,"Generosity":0.424,"Perceptions of corruption":0.746},"geometry":{"type":"Point","coordinates":[-15.362493,13.505929]}},{"type":"Feature","properties":{"Country name":"Georgia","Regional indicator":"Commonwealth of Independent States","Ladder score":4.891,"Logged GDP per capita":9.585,"Social support":0.671,"Healthy life expectancy":64.3,"Freedom to make life choices":0.783,"Generosity":-0.238,"Perceptions of corruption":0.655},"geometry":{"type":"Point","coordinates":[43.735725,41.870087]}},{"type":"Feature","properties":{"Country name":"Germany","Regional indicator":"Western Europe","Ladder score":7.155,"Logged GDP per capita":10.873,"Social support":0.903,"Healthy life expectancy":72.5,"Freedom to make life choices":0.875,"Generosity":0.011,"Perceptions of corruption":0.46},"geometry":{"type":"Point","coordinates":[9.62743,51.196755]}},{"type":"Feature","properties":{"Country name":"Ghana","Regional indicator":"Sub-Saharan Africa","Ladder score":5.088,"Logged GDP per capita":8.58,"Social support":0.727,"Healthy life expectancy":57.586,"Freedom to make life choices":0.807,"Generosity":0.123,"Perceptions of corruption":0.848},"geometry":{"type":"Point","coordinates":[-0.982714,7.85125]}},{"type":"Feature","properties":{"Country name":"Greece","Regional indicator":"Western Europe","Ladder score":5.723,"Logged GDP per capita":10.279,"Social support":0.823,"Healthy life expectancy":72.6,"Freedom to make life choices":0.582,"Generosity":-0.288,"Perceptions of corruption":0.823},"geometry":{"type":"Point","coordinates":[21.708535,39.78331]}},{"type":"Feature","properties":{"Country name":"Guatemala","Regional indicator":"Latin America and Caribbean","Ladder score":6.435,"Logged GDP per capita":9.053,"Social support":0.813,"Healthy life expectancy":64.958,"Freedom to make life choices":0.906,"Generosity":-0.038,"Perceptions of corruption":0.775},"geometry":{"type":"Point","coordinates":[-90.522408,14.989397]}},{"type":"Feature","properties":{"Country name":"Guinea","Regional indicator":"Sub-Saharan Africa","Ladder score":4.984,"Logged GDP per capita":7.838,"Social support":0.639,"Healthy life expectancy":55.008,"Freedom to make life choices":0.697,"Generosity":0.095,"Perceptions of corruption":0.766},"geometry":{"type":"Point","coordinates":[-9.951975,10.625075]}},{"type":"Feature","properties":{"Country name":"Haiti","Regional indicator":"Latin America and Caribbean","Ladder score":3.615,"Logged GDP per capita":7.477,"Social support":0.54,"Healthy life expectancy":55.7,"Freedom to make life choices":0.593,"Generosity":0.422,"Perceptions of corruption":0.721},"geometry":{"type":"Point","coordinates":[-72.294701,19.251299]}},{"type":"Feature","properties":{"Country name":"Honduras","Regional indicator":"Latin America and Caribbean","Ladder score":5.919,"Logged GDP per capita":8.648,"Social support":0.812,"Healthy life expectancy":67.3,"Freedom to make life choices":0.857,"Generosity":0.081,"Perceptions of corruption":0.809},"geometry":{"type":"Point","coordinates":[-86.920196,14.762778]}},{"type":"Feature","properties":{"Country name":"Hungary","Regional indicator":"Central and Eastern Europe","Ladder score":5.992,"Logged GDP per capita":10.358,"Social support":0.943,"Healthy life expectancy":68,"Freedom to make life choices":0.755,"Generosity":-0.186,"Perceptions of corruption":0.876},"geometry":{"type":"Point","coordinates":[19.447899,47.086857]}},{"type":"Feature","properties":{"Country name":"Iceland","Regional indicator":"Western Europe","Ladder score":7.554,"Logged GDP per capita":10.878,"Social support":0.983,"Healthy life expectancy":73,"Freedom to make life choices":0.955,"Generosity":0.16,"Perceptions of corruption":0.673},"geometry":{"type":"Point","coordinates":[-18.673522,64.779262]}},{"type":"Feature","properties":{"Country name":"India","Regional indicator":"South Asia","Ladder score":3.819,"Logged GDP per capita":8.755,"Social support":0.603,"Healthy life expectancy":60.633,"Freedom to make life choices":0.893,"Generosity":0.089,"Perceptions of corruption":0.774},"geometry":{"type":"Point","coordinates":[79.132924,22.412321]}},{"type":"Feature","properties":{"Country name":"Indonesia","Regional indicator":"Southeast Asia","Ladder score":5.345,"Logged GDP per capita":9.365,"Social support":0.811,"Healthy life expectancy":62.236,"Freedom to make life choices":0.873,"Generosity":0.542,"Perceptions of corruption":0.867},"geometry":{"type":"Point","coordinates":[101.972332,-1.003189]}},{"type":"Feature","properties":{"Country name":"Iran","Regional indicator":"Middle East and North Africa","Ladder score":4.721,"Logged GDP per capita":9.584,"Social support":0.71,"Healthy life expectancy":66.3,"Freedom to make life choices":0.608,"Generosity":0.218,"Perceptions of corruption":0.714},"geometry":{"type":"Point","coordinates":[55.245317,31.931398]}},{"type":"Feature","properties":{"Country name":"Iraq","Regional indicator":"Middle East and North Africa","Ladder score":4.854,"Logged GDP per capita":9.24,"Social support":0.746,"Healthy life expectancy":60.583,"Freedom to make life choices":0.63,"Generosity":-0.053,"Perceptions of corruption":0.875},"geometry":{"type":"Point","coordinates":[43.614805,32.765286]}},{"type":"Feature","properties":{"Country name":"Ireland","Regional indicator":"Western Europe","Ladder score":7.085,"Logged GDP per capita":11.342,"Social support":0.947,"Healthy life expectancy":72.4,"Freedom to make life choices":0.879,"Generosity":0.077,"Perceptions of corruption":0.363},"geometry":{"type":"Point","coordinates":[-7.798618,53.078731]}},{"type":"Feature","properties":{"Country name":"Israel","Regional indicator":"Middle East and North Africa","Ladder score":7.157,"Logged GDP per capita":10.575,"Social support":0.939,"Healthy life expectancy":73.503,"Freedom to make life choices":0.8,"Generosity":0.031,"Perceptions of corruption":0.753},"geometry":{"type":"Point","coordinates":[34.860794,30.902941]}},{"type":"Feature","properties":{"Country name":"Italy","Regional indicator":"Western Europe","Ladder score":6.483,"Logged GDP per capita":10.623,"Social support":0.88,"Healthy life expectancy":73.8,"Freedom to make life choices":0.693,"Generosity":-0.084,"Perceptions of corruption":0.866},"geometry":{"type":"Point","coordinates":[11.077303,44.732552]}},{"type":"Feature","properties":{"Country name":"Ivory Coast","Regional indicator":"Sub-Saharan Africa","Ladder score":5.306,"Logged GDP per capita":8.551,"Social support":0.644,"Healthy life expectancy":50.114,"Freedom to make life choices":0.741,"Generosity":-0.016,"Perceptions of corruption":0.794},"geometry":{"type":"Point","coordinates":[-5.495164,7.568978]}},{"type":"Feature","properties":{"Country name":"Jamaica","Regional indicator":"Latin America and Caribbean","Ladder score":6.309,"Logged GDP per capita":9.186,"Social support":0.877,"Healthy life expectancy":67.5,"Freedom to make life choices":0.89,"Generosity":-0.137,"Perceptions of corruption":0.884},"geometry":{"type":"Point","coordinates":[-77.318767,18.137123]}},{"type":"Feature","properties":{"Country name":"Japan","Regional indicator":"East Asia","Ladder score":5.94,"Logged GDP per capita":10.611,"Social support":0.884,"Healthy life expectancy":75.1,"Freedom to make life choices":0.796,"Generosity":-0.258,"Perceptions of corruption":0.638},"geometry":{"type":"Point","coordinates":[138.441899,36.13793]}},{"type":"Feature","properties":{"Country name":"Jordan","Regional indicator":"Middle East and North Africa","Ladder score":4.395,"Logged GDP per capita":9.182,"Social support":0.767,"Healthy life expectancy":67,"Freedom to make life choices":0.755,"Generosity":-0.167,"Perceptions of corruption":0.705},"geometry":{"type":"Point","coordinates":[36.391378,30.802278]}},{"type":"Feature","properties":{"Country name":"Kazakhstan","Regional indicator":"Commonwealth of Independent States","Ladder score":6.152,"Logged GDP per capita":10.155,"Social support":0.952,"Healthy life expectancy":65.2,"Freedom to make life choices":0.853,"Generosity":-0.069,"Perceptions of corruption":0.733},"geometry":{"type":"Point","coordinates":[69.258345,48.401963]}},{"type":"Feature","properties":{"Country name":"Kenya","Regional indicator":"Sub-Saharan Africa","Ladder score":4.607,"Logged GDP per capita":8.361,"Social support":0.688,"Healthy life expectancy":60.704,"Freedom to make life choices":0.779,"Generosity":0.287,"Perceptions of corruption":0.825},"geometry":{"type":"Point","coordinates":[37.918308,0.543716]}},{"type":"Feature","properties":{"Country name":"Kosovo","Regional indicator":"Central and Eastern Europe","Ladder score":6.372,"Logged GDP per capita":9.318,"Social support":0.821,"Healthy life expectancy":63.813,"Freedom to make life choices":0.869,"Generosity":0.257,"Perceptions of corruption":0.917},"geometry":{"type":"Point","coordinates":[20.875449,42.590239]}},{"type":"Feature","properties":{"Country name":"Kuwait","Regional indicator":"Middle East and North Africa","Ladder score":6.106,"Logged GDP per capita":10.817,"Social support":0.843,"Healthy life expectancy":66.9,"Freedom to make life choices":0.867,"Generosity":-0.104,"Perceptions of corruption":0.736},"geometry":{"type":"Point","coordinates":[47.330015,29.422226]}},{"type":"Feature","properties":{"Country name":"Kyrgyzstan","Regional indicator":"Commonwealth of Independent States","Ladder score":5.744,"Logged GDP per capita":8.538,"Social support":0.893,"Healthy life expectancy":64.401,"Freedom to make life choices":0.935,"Generosity":0.119,"Perceptions of corruption":0.908},"geometry":{"type":"Point","coordinates":[74.524734,41.68268]}},{"type":"Feature","properties":{"Country name":"Laos","Regional indicator":"Southeast Asia","Ladder score":5.03,"Logged GDP per capita":8.947,"Social support":0.728,"Healthy life expectancy":58.968,"Freedom to make life choices":0.91,"Generosity":0.123,"Perceptions of corruption":0.658},"geometry":{"type":"Point","coordinates":[102.560667,19.43535]}},{"type":"Feature","properties":{"Country name":"Latvia","Regional indicator":"Central and Eastern Europe","Ladder score":6.032,"Logged GDP per capita":10.315,"Social support":0.927,"Healthy life expectancy":67.1,"Freedom to make life choices":0.715,"Generosity":-0.162,"Perceptions of corruption":0.8},"geometry":{"type":"Point","coordinates":[25.458464,57.06689]}},{"type":"Feature","properties":{"Country name":"Lebanon","Regional indicator":"Middle East and North Africa","Ladder score":4.584,"Logged GDP per capita":9.626,"Social support":0.848,"Healthy life expectancy":67.355,"Freedom to make life choices":0.525,"Generosity":-0.073,"Perceptions of corruption":0.898},"geometry":{"type":"Point","coordinates":[35.95658,34.095838]}},{"type":"Feature","properties":{"Country name":"Lesotho","Regional indicator":"Sub-Saharan Africa","Ladder score":3.512,"Logged GDP per capita":7.926,"Social support":0.787,"Healthy life expectancy":48.7,"Freedom to make life choices":0.715,"Generosity":-0.131,"Perceptions of corruption":0.915},"geometry":{"type":"Point","coordinates":[28.163744,-29.516751]}},{"type":"Feature","properties":{"Country name":"Liberia","Regional indicator":"Sub-Saharan Africa","Ladder score":4.625,"Logged GDP per capita":7.288,"Social support":0.72,"Healthy life expectancy":56.498,"Freedom to make life choices":0.735,"Generosity":0.05,"Perceptions of corruption":0.85},"geometry":{"type":"Point","coordinates":[-9.449891,6.445025]}},{"type":"Feature","properties":{"Country name":"Libya","Regional indicator":"Middle East and North Africa","Ladder score":5.41,"Logged GDP per capita":9.622,"Social support":0.827,"Healthy life expectancy":62.3,"Freedom to make life choices":0.771,"Generosity":-0.087,"Perceptions of corruption":0.667},"geometry":{"type":"Point","coordinates":[18.030248,26.666955]}},{"type":"Feature","properties":{"Country name":"Lithuania","Regional indicator":"Central and Eastern Europe","Ladder score":6.255,"Logged GDP per capita":10.499,"Social support":0.935,"Healthy life expectancy":67.906,"Freedom to make life choices":0.773,"Generosity":-0.203,"Perceptions of corruption":0.826},"geometry":{"type":"Point","coordinates":[24.089932,55.103703]}},{"type":"Feature","properties":{"Country name":"Luxembourg","Regional indicator":"Western Europe","Ladder score":7.324,"Logged GDP per capita":11.647,"Social support":0.908,"Healthy life expectancy":72.6,"Freedom to make life choices":0.907,"Generosity":-0.034,"Perceptions of corruption":0.386},"geometry":{"type":"Point","coordinates":[6.086636,49.759178]}},{"type":"Feature","properties":{"Country name":"Madagascar","Regional indicator":"Sub-Saharan Africa","Ladder score":4.208,"Logged GDP per capita":7.396,"Social support":0.686,"Healthy life expectancy":59.305,"Freedom to make life choices":0.552,"Generosity":-0.005,"Perceptions of corruption":0.803},"geometry":{"type":"Point","coordinates":[46.704055,-18.628414]}},{"type":"Feature","properties":{"Country name":"Malawi","Regional indicator":"Sub-Saharan Africa","Ladder score":3.6,"Logged GDP per capita":6.958,"Social support":0.537,"Healthy life expectancy":57.948,"Freedom to make life choices":0.78,"Generosity":0.038,"Perceptions of corruption":0.729},"geometry":{"type":"Point","coordinates":[33.658495,-13.404159]}},{"type":"Feature","properties":{"Country name":"Malaysia","Regional indicator":"Southeast Asia","Ladder score":5.384,"Logged GDP per capita":10.238,"Social support":0.817,"Healthy life expectancy":67.102,"Freedom to make life choices":0.895,"Generosity":0.125,"Perceptions of corruption":0.839},"geometry":{"type":"Point","coordinates":[113.833569,2.521947]}},{"type":"Feature","properties":{"Country name":"Maldives","Regional indicator":"South Asia","Ladder score":5.198,"Logged GDP per capita":9.826,"Social support":0.913,"Healthy life expectancy":70.6,"Freedom to make life choices":0.854,"Generosity":0.024,"Perceptions of corruption":0.825},"geometry":{"type":"Point","coordinates":[73.093739,-0.614771]}},{"type":"Feature","properties":{"Country name":"Mali","Regional indicator":"Sub-Saharan Africa","Ladder score":4.723,"Logged GDP per capita":7.744,"Social support":0.724,"Healthy life expectancy":51.969,"Freedom to make life choices":0.697,"Generosity":-0.036,"Perceptions of corruption":0.827},"geometry":{"type":"Point","coordinates":[-2.015109,18.683211]}},{"type":"Feature","properties":{"Country name":"Malta","Regional indicator":"Western Europe","Ladder score":6.602,"Logged GDP per capita":10.674,"Social support":0.931,"Healthy life expectancy":72.2,"Freedom to make life choices":0.927,"Generosity":0.133,"Perceptions of corruption":0.653},"geometry":{"type":"Point","coordinates":[14.431432,35.888972]}},{"type":"Feature","properties":{"Country name":"Mauritania","Regional indicator":"Sub-Saharan Africa","Ladder score":4.227,"Logged GDP per capita":8.542,"Social support":0.795,"Healthy life expectancy":57.161,"Freedom to make life choices":0.561,"Generosity":-0.106,"Perceptions of corruption":0.731},"geometry":{"type":"Point","coordinates":[-9.737341,19.599264]}},{"type":"Feature","properties":{"Country name":"Mauritius","Regional indicator":"Sub-Saharan Africa","Ladder score":6.049,"Logged GDP per capita":10.008,"Social support":0.905,"Healthy life expectancy":66.701,"Freedom to make life choices":0.867,"Generosity":-0.054,"Perceptions of corruption":0.789},"geometry":{"type":"Point","coordinates":[57.534935,-20.321973]}},{"type":"Feature","properties":{"Country name":"Mexico","Regional indicator":"Latin America and Caribbean","Ladder score":6.317,"Logged GDP per capita":9.859,"Social support":0.831,"Healthy life expectancy":68.597,"Freedom to make life choices":0.862,"Generosity":-0.147,"Perceptions of corruption":0.799},"geometry":{"type":"Point","coordinates":[-102.289691,23.920061]}},{"type":"Feature","properties":{"Country name":"Moldova","Regional indicator":"Commonwealth of Independent States","Ladder score":5.766,"Logged GDP per capita":9.454,"Social support":0.857,"Healthy life expectancy":65.699,"Freedom to make life choices":0.822,"Generosity":-0.079,"Perceptions of corruption":0.918},"geometry":{"type":"Point","coordinates":[28.487904,47.435]}},{"type":"Feature","properties":{"Country name":"Mongolia","Regional indicator":"East Asia","Ladder score":5.677,"Logged GDP per capita":9.4,"Social support":0.935,"Healthy life expectancy":62.5,"Freedom to make life choices":0.708,"Generosity":0.116,"Perceptions of corruption":0.856},"geometry":{"type":"Point","coordinates":[104.159557,45.99339]}},{"type":"Feature","properties":{"Country name":"Montenegro","Regional indicator":"Central and Eastern Europe","Ladder score":5.581,"Logged GDP per capita":9.94,"Social support":0.858,"Healthy life expectancy":68.699,"Freedom to make life choices":0.708,"Generosity":-0.034,"Perceptions of corruption":0.812},"geometry":{"type":"Point","coordinates":[19.157424,42.782845]}},{"type":"Feature","properties":{"Country name":"Morocco","Regional indicator":"Middle East and North Africa","Ladder score":4.918,"Logged GDP per capita":8.903,"Social support":0.56,"Healthy life expectancy":66.208,"Freedom to make life choices":0.774,"Generosity":-0.236,"Perceptions of corruption":0.801},"geometry":{"type":"Point","coordinates":[-7.189711,31.649504]}},{"type":"Feature","properties":{"Country name":"Mozambique","Regional indicator":"Sub-Saharan Africa","Ladder score":4.794,"Logged GDP per capita":7.158,"Social support":0.744,"Healthy life expectancy":54.706,"Freedom to make life choices":0.882,"Generosity":0.061,"Perceptions of corruption":0.684},"geometry":{"type":"Point","coordinates":[37.837456,-13.885531]}},{"type":"Feature","properties":{"Country name":"Myanmar","Regional indicator":"Southeast Asia","Ladder score":4.426,"Logged GDP per capita":8.541,"Social support":0.779,"Healthy life expectancy":59.302,"Freedom to make life choices":0.876,"Generosity":0.509,"Perceptions of corruption":0.66},"geometry":{"type":"Point","coordinates":[96.06596,21.576814]}},{"type":"Feature","properties":{"Country name":"Namibia","Regional indicator":"Sub-Saharan Africa","Ladder score":4.574,"Logged GDP per capita":9.161,"Social support":0.818,"Healthy life expectancy":56.799,"Freedom to make life choices":0.719,"Generosity":-0.149,"Perceptions of corruption":0.847},"geometry":{"type":"Point","coordinates":[17.119649,-20.586347]}},{"type":"Feature","properties":{"Country name":"Nepal","Regional indicator":"South Asia","Ladder score":5.269,"Logged GDP per capita":8.12,"Social support":0.774,"Healthy life expectancy":64.233,"Freedom to make life choices":0.782,"Generosity":0.152,"Perceptions of corruption":0.727},"geometry":{"type":"Point","coordinates":[83.60374,28.323184]}},{"type":"Feature","properties":{"Country name":"Netherlands","Regional indicator":"Western Europe","Ladder score":7.464,"Logged GDP per capita":10.932,"Social support":0.942,"Healthy life expectancy":72.4,"Freedom to make life choices":0.913,"Generosity":0.175,"Perceptions of corruption":0.338},"geometry":{"type":"Point","coordinates":[5.501896,52.554205]}},{"type":"Feature","properties":{"Country name":"New Zealand","Regional indicator":"North America and ANZ","Ladder score":7.277,"Logged GDP per capita":10.643,"Social support":0.948,"Healthy life expectancy":73.4,"Freedom to make life choices":0.929,"Generosity":0.134,"Perceptions of corruption":0.242},"geometry":{"type":"Point","coordinates":[169.232531,-45.175323]}},{"type":"Feature","properties":{"Country name":"Nicaragua","Regional indicator":"Latin America and Caribbean","Ladder score":5.972,"Logged GDP per capita":8.62,"Social support":0.864,"Healthy life expectancy":67.657,"Freedom to make life choices":0.836,"Generosity":0.02,"Perceptions of corruption":0.664},"geometry":{"type":"Point","coordinates":[-85.039545,12.793313]}},{"type":"Feature","properties":{"Country name":"Niger","Regional indicator":"Sub-Saharan Africa","Ladder score":5.074,"Logged GDP per capita":7.098,"Social support":0.641,"Healthy life expectancy":53.78,"Freedom to make life choices":0.806,"Generosity":0.018,"Perceptions of corruption":0.693},"geometry":{"type":"Point","coordinates":[9.521564,17.431408]}},{"type":"Feature","properties":{"Country name":"Nigeria","Regional indicator":"Sub-Saharan Africa","Ladder score":4.759,"Logged GDP per capita":8.533,"Social support":0.74,"Healthy life expectancy":50.102,"Freedom to make life choices":0.737,"Generosity":0.037,"Perceptions of corruption":0.878},"geometry":{"type":"Point","coordinates":[7.607418,9.404974]}},{"type":"Feature","properties":{"Country name":"Northern Cyprus","Regional indicator":"Western Europe","Ladder score":5.536,"Logged GDP per capita":10.576,"Social support":0.82,"Healthy life expectancy":73.898,"Freedom to make life choices":0.795,"Generosity":0.012,"Perceptions of corruption":0.626},"geometry":{"type":"Point","coordinates":[33.692434,35.216071]}},{"type":"Feature","properties":{"Country name":"North Macedonia","Regional indicator":"Central and Eastern Europe","Ladder score":5.101,"Logged GDP per capita":9.693,"Social support":0.805,"Healthy life expectancy":65.474,"Freedom to make life choices":0.751,"Generosity":0.038,"Perceptions of corruption":0.905},"geometry":{"type":"Point","coordinates":[21.547313,41.569245]}},{"type":"Feature","properties":{"Country name":"Norway","Regional indicator":"Western Europe","Ladder score":7.392,"Logged GDP per capita":11.053,"Social support":0.954,"Healthy life expectancy":73.3,"Freedom to make life choices":0.96,"Generosity":0.093,"Perceptions of corruption":0.27},"geometry":{"type":"Point","coordinates":[9.680372,61.356908]}},{"type":"Feature","properties":{"Country name":"Pakistan","Regional indicator":"South Asia","Ladder score":4.934,"Logged GDP per capita":8.458,"Social support":0.651,"Healthy life expectancy":58.709,"Freedom to make life choices":0.726,"Generosity":0.098,"Perceptions of corruption":0.787},"geometry":{"type":"Point","coordinates":[68.546268,29.328493]}},{"type":"Feature","properties":{"Country name":"Panama","Regional indicator":"Latin America and Caribbean","Ladder score":6.18,"Logged GDP per capita":10.35,"Social support":0.896,"Healthy life expectancy":69.652,"Freedom to make life choices":0.872,"Generosity":-0.166,"Perceptions of corruption":0.856},"geometry":{"type":"Point","coordinates":[-80.338454,8.72491]}},{"type":"Feature","properties":{"Country name":"Paraguay","Regional indicator":"Latin America and Caribbean","Ladder score":5.653,"Logged GDP per capita":9.448,"Social support":0.893,"Healthy life expectancy":65.9,"Freedom to make life choices":0.876,"Generosity":0.028,"Perceptions of corruption":0.882},"geometry":{"type":"Point","coordinates":[-60.13994,-21.686079]}},{"type":"Feature","properties":{"Country name":"Peru","Regional indicator":"Latin America and Caribbean","Ladder score":5.84,"Logged GDP per capita":9.458,"Social support":0.832,"Healthy life expectancy":68.25,"Freedom to make life choices":0.822,"Generosity":-0.154,"Perceptions of corruption":0.891},"geometry":{"type":"Point","coordinates":[-72.876651,-12.98078]}},{"type":"Feature","properties":{"Country name":"Philippines","Regional indicator":"Southeast Asia","Ladder score":5.88,"Logged GDP per capita":9.076,"Social support":0.83,"Healthy life expectancy":62,"Freedom to make life choices":0.917,"Generosity":-0.097,"Perceptions of corruption":0.742},"geometry":{"type":"Point","coordinates":[121.387948,16.932122]}},{"type":"Feature","properties":{"Country name":"Poland","Regional indicator":"Central and Eastern Europe","Ladder score":6.166,"Logged GDP per capita":10.382,"Social support":0.898,"Healthy life expectancy":69.702,"Freedom to make life choices":0.841,"Generosity":-0.165,"Perceptions of corruption":0.735},"geometry":{"type":"Point","coordinates":[20.388926,51.899304]}},{"type":"Feature","properties":{"Country name":"Portugal","Regional indicator":"Western Europe","Ladder score":5.929,"Logged GDP per capita":10.421,"Social support":0.879,"Healthy life expectancy":72.6,"Freedom to make life choices":0.892,"Generosity":-0.244,"Perceptions of corruption":0.887},"geometry":{"type":"Point","coordinates":[-8.266333,39.225448]}},{"type":"Feature","properties":{"Country name":"Republic of the Congo","Regional indicator":"Sub-Saharan Africa","Ladder score":5.342,"Logged GDP per capita":8.117,"Social support":0.636,"Healthy life expectancy":58.221,"Freedom to make life choices":0.695,"Generosity":-0.068,"Perceptions of corruption":0.745},"geometry":{"type":"Point","coordinates":[23.513592,-2.271721]}},{"type":"Feature","properties":{"Country name":"Romania","Regional indicator":"Central and Eastern Europe","Ladder score":6.14,"Logged GDP per capita":10.284,"Social support":0.832,"Healthy life expectancy":67.355,"Freedom to make life choices":0.845,"Generosity":-0.219,"Perceptions of corruption":0.938},"geometry":{"type":"Point","coordinates":[24.984652,45.727469]}},{"type":"Feature","properties":{"Country name":"Russia","Regional indicator":"Commonwealth of Independent States","Ladder score":5.477,"Logged GDP per capita":10.189,"Social support":0.903,"Healthy life expectancy":64.703,"Freedom to make life choices":0.718,"Generosity":-0.111,"Perceptions of corruption":0.845},"geometry":{"type":"Point","coordinates":[93.884016,63.314401]}},{"type":"Feature","properties":{"Country name":"Rwanda","Regional indicator":"Sub-Saharan Africa","Ladder score":3.415,"Logged GDP per capita":7.676,"Social support":0.552,"Healthy life expectancy":61.4,"Freedom to make life choices":0.897,"Generosity":0.061,"Perceptions of corruption":0.167},"geometry":{"type":"Point","coordinates":[30.095066,-1.89815]}},{"type":"Feature","properties":{"Country name":"Saudi Arabia","Regional indicator":"Middle East and North Africa","Ladder score":6.494,"Logged GDP per capita":10.743,"Social support":0.891,"Healthy life expectancy":66.603,"Freedom to make life choices":0.877,"Generosity":-0.149,"Perceptions of corruption":0.684},"geometry":{"type":"Point","coordinates":[44.700847,23.806678]}},{"type":"Feature","properties":{"Country name":"Senegal","Regional indicator":"Sub-Saharan Africa","Ladder score":5.132,"Logged GDP per capita":8.118,"Social support":0.71,"Healthy life expectancy":59.802,"Freedom to make life choices":0.695,"Generosity":-0.046,"Perceptions of corruption":0.801},"geometry":{"type":"Point","coordinates":[-14.768082,15.13855]}},{"type":"Feature","properties":{"Country name":"Republic of Serbia","Regional indicator":"Central and Eastern Europe","Ladder score":6.078,"Logged GDP per capita":9.787,"Social support":0.873,"Healthy life expectancy":68.6,"Freedom to make life choices":0.778,"Generosity":0.002,"Perceptions of corruption":0.835},"geometry":{"type":"Point","coordinates":[20.589197,44.251791]}},{"type":"Feature","properties":{"Country name":"Sierra Leone","Regional indicator":"Sub-Saharan Africa","Ladder score":3.849,"Logged GDP per capita":7.434,"Social support":0.63,"Healthy life expectancy":51.651,"Freedom to make life choices":0.717,"Generosity":0.084,"Perceptions of corruption":0.866},"geometry":{"type":"Point","coordinates":[-11.756202,8.616007]}},{"type":"Feature","properties":{"Country name":"Singapore","Regional indicator":"Southeast Asia","Ladder score":6.377,"Logged GDP per capita":11.488,"Social support":0.915,"Healthy life expectancy":76.953,"Freedom to make life choices":0.927,"Generosity":-0.018,"Perceptions of corruption":0.082},"geometry":{"type":"Point","coordinates":[103.80938,1.357685]}},{"type":"Feature","properties":{"Country name":"Slovakia","Regional indicator":"Central and Eastern Europe","Ladder score":6.331,"Logged GDP per capita":10.369,"Social support":0.936,"Healthy life expectancy":69.201,"Freedom to make life choices":0.766,"Generosity":-0.124,"Perceptions of corruption":0.911},"geometry":{"type":"Point","coordinates":[19.201811,48.752408]}},{"type":"Feature","properties":{"Country name":"Slovenia","Regional indicator":"Central and Eastern Europe","Ladder score":6.461,"Logged GDP per capita":10.529,"Social support":0.948,"Healthy life expectancy":71.4,"Freedom to make life choices":0.949,"Generosity":-0.101,"Perceptions of corruption":0.806},"geometry":{"type":"Point","coordinates":[14.932759,46.068735]}},{"type":"Feature","properties":{"Country name":"South Africa","Regional indicator":"Sub-Saharan Africa","Ladder score":4.956,"Logged GDP per capita":9.403,"Social support":0.86,"Healthy life expectancy":56.904,"Freedom to make life choices":0.749,"Generosity":-0.067,"Perceptions of corruption":0.86},"geometry":{"type":"Point","coordinates":[23.666291,-29.708985]}},{"type":"Feature","properties":{"Country name":"South Korea","Regional indicator":"East Asia","Ladder score":5.845,"Logged GDP per capita":10.651,"Social support":0.799,"Healthy life expectancy":73.9,"Freedom to make life choices":0.672,"Generosity":-0.083,"Perceptions of corruption":0.727},"geometry":{"type":"Point","coordinates":[128.123986,36.382192]}},{"type":"Feature","properties":{"Country name":"Spain","Regional indicator":"Western Europe","Ladder score":6.491,"Logged GDP per capita":10.571,"Social support":0.932,"Healthy life expectancy":74.7,"Freedom to make life choices":0.761,"Generosity":-0.081,"Perceptions of corruption":0.745},"geometry":{"type":"Point","coordinates":[-3.464618,40.09095]}},{"type":"Feature","properties":{"Country name":"Sri Lanka","Regional indicator":"South Asia","Ladder score":4.325,"Logged GDP per capita":9.47,"Social support":0.827,"Healthy life expectancy":67.299,"Freedom to make life choices":0.841,"Generosity":0.079,"Perceptions of corruption":0.863},"geometry":{"type":"Point","coordinates":[80.68822,7.622919]}},{"type":"Feature","properties":{"Country name":"eSwatini","Regional indicator":"Sub-Saharan Africa","Ladder score":4.308,"Logged GDP per capita":9.065,"Social support":0.77,"Healthy life expectancy":50.833,"Freedom to make life choices":0.647,"Generosity":-0.185,"Perceptions of corruption":0.708},"geometry":{"type":"Point","coordinates":[31.484912,-26.574488]}},{"type":"Feature","properties":{"Country name":"Sweden","Regional indicator":"Western Europe","Ladder score":7.363,"Logged GDP per capita":10.867,"Social support":0.934,"Healthy life expectancy":72.7,"Freedom to make life choices":0.945,"Generosity":0.086,"Perceptions of corruption":0.237},"geometry":{"type":"Point","coordinates":[19.017205,65.859144]}},{"type":"Feature","properties":{"Country name":"Switzerland","Regional indicator":"Western Europe","Ladder score":7.571,"Logged GDP per capita":11.117,"Social support":0.942,"Healthy life expectancy":74.4,"Freedom to make life choices":0.919,"Generosity":0.025,"Perceptions of corruption":0.292},"geometry":{"type":"Point","coordinates":[7.509687,46.730219]}},{"type":"Feature","properties":{"Country name":"Tajikistan","Regional indicator":"Commonwealth of Independent States","Ladder score":5.466,"Logged GDP per capita":8.091,"Social support":0.86,"Healthy life expectancy":64.281,"Freedom to make life choices":0.832,"Generosity":-0.056,"Perceptions of corruption":0.553},"geometry":{"type":"Point","coordinates":[72.571946,38.185311]}},{"type":"Feature","properties":{"Country name":"United Republic of Tanzania","Regional indicator":"Sub-Saharan Africa","Ladder score":3.623,"Logged GDP per capita":7.876,"Social support":0.702,"Healthy life expectancy":57.999,"Freedom to make life choices":0.833,"Generosity":0.183,"Perceptions of corruption":0.577},"geometry":{"type":"Point","coordinates":[34.800732,-5.869032]}},{"type":"Feature","properties":{"Country name":"Thailand","Regional indicator":"Southeast Asia","Ladder score":5.985,"Logged GDP per capita":9.805,"Social support":0.888,"Healthy life expectancy":67.401,"Freedom to make life choices":0.884,"Generosity":0.287,"Perceptions of corruption":0.895},"geometry":{"type":"Point","coordinates":[101.301707,15.512883]}},{"type":"Feature","properties":{"Country name":"Togo","Regional indicator":"Sub-Saharan Africa","Ladder score":4.107,"Logged GDP per capita":7.362,"Social support":0.569,"Healthy life expectancy":54.914,"Freedom to make life choices":0.619,"Generosity":0.032,"Perceptions of corruption":0.772},"geometry":{"type":"Point","coordinates":[1.073832,8.846267]}},{"type":"Feature","properties":{"Country name":"Tunisia","Regional indicator":"Middle East and North Africa","Ladder score":4.596,"Logged GDP per capita":9.266,"Social support":0.691,"Healthy life expectancy":67.201,"Freedom to make life choices":0.656,"Generosity":-0.201,"Perceptions of corruption":0.87},"geometry":{"type":"Point","coordinates":[9.007775,33.687264]}},{"type":"Feature","properties":{"Country name":"Turkey","Regional indicator":"Middle East and North Africa","Ladder score":4.948,"Logged GDP per capita":10.24,"Social support":0.822,"Healthy life expectancy":67.199,"Freedom to make life choices":0.576,"Generosity":-0.139,"Perceptions of corruption":0.776},"geometry":{"type":"Point","coordinates":[34.51052,39.339547]}},{"type":"Feature","properties":{"Country name":"Turkmenistan","Regional indicator":"Commonwealth of Independent States","Ladder score":5.066,"Logged GDP per capita":9.629,"Social support":0.983,"Healthy life expectancy":62.409,"Freedom to make life choices":0.877,"Generosity":0.273,"Perceptions of corruption":0.888},"geometry":{"type":"Point","coordinates":[58.676541,39.869796]}},{"type":"Feature","properties":{"Country name":"Uganda","Regional indicator":"Sub-Saharan Africa","Ladder score":4.636,"Logged GDP per capita":7.677,"Social support":0.781,"Healthy life expectancy":56.101,"Freedom to make life choices":0.709,"Generosity":0.122,"Perceptions of corruption":0.855},"geometry":{"type":"Point","coordinates":[32.443764,0.90406]}},{"type":"Feature","properties":{"Country name":"Ukraine","Regional indicator":"Commonwealth of Independent States","Ladder score":4.875,"Logged GDP per capita":9.436,"Social support":0.888,"Healthy life expectancy":64.902,"Freedom to make life choices":0.724,"Generosity":-0.011,"Perceptions of corruption":0.924},"geometry":{"type":"Point","coordinates":[33.023452,49.219469]}},{"type":"Feature","properties":{"Country name":"United Arab Emirates","Regional indicator":"Middle East and North Africa","Ladder score":6.561,"Logged GDP per capita":11.085,"Social support":0.844,"Healthy life expectancy":67.333,"Freedom to make life choices":0.932,"Generosity":0.074,"Perceptions of corruption":0.589},"geometry":{"type":"Point","coordinates":[54.576046,23.47438]}},{"type":"Feature","properties":{"Country name":"United Kingdom","Regional indicator":"Western Europe","Ladder score":7.064,"Logged GDP per capita":10.707,"Social support":0.934,"Healthy life expectancy":72.5,"Freedom to make life choices":0.859,"Generosity":0.233,"Perceptions of corruption":0.459},"geometry":{"type":"Point","coordinates":[-1.247349,52.418788]}},{"type":"Feature","properties":{"Country name":"United States of America","Regional indicator":"North America and ANZ","Ladder score":6.951,"Logged GDP per capita":11.023,"Social support":0.92,"Healthy life expectancy":68.2,"Freedom to make life choices":0.837,"Generosity":0.098,"Perceptions of corruption":0.698},"geometry":{"type":"Point","coordinates":[-96.999668,39.715956]}},{"type":"Feature","properties":{"Country name":"Uruguay","Regional indicator":"Latin America and Caribbean","Ladder score":6.431,"Logged GDP per capita":9.966,"Social support":0.925,"Healthy life expectancy":69.1,"Freedom to make life choices":0.896,"Generosity":-0.092,"Perceptions of corruption":0.59},"geometry":{"type":"Point","coordinates":[-56.01682,-32.838882]}},{"type":"Feature","properties":{"Country name":"Uzbekistan","Regional indicator":"Commonwealth of Independent States","Ladder score":6.179,"Logged GDP per capita":8.836,"Social support":0.918,"Healthy life expectancy":65.255,"Freedom to make life choices":0.97,"Generosity":0.311,"Perceptions of corruption":0.515},"geometry":{"type":"Point","coordinates":[63.960684,41.726948]}},{"type":"Feature","properties":{"Country name":"Venezuela","Regional indicator":"Latin America and Caribbean","Ladder score":4.892,"Logged GDP per capita":9.073,"Social support":0.861,"Healthy life expectancy":66.7,"Freedom to make life choices":0.615,"Generosity":-0.169,"Perceptions of corruption":0.827},"geometry":{"type":"Point","coordinates":[-64.568705,7.18646]}},{"type":"Feature","properties":{"Country name":"Vietnam","Regional indicator":"Southeast Asia","Ladder score":5.411,"Logged GDP per capita":8.973,"Social support":0.85,"Healthy life expectancy":68.034,"Freedom to make life choices":0.94,"Generosity":-0.098,"Perceptions of corruption":0.796},"geometry":{"type":"Point","coordinates":[105.396672,21.732568]}},{"type":"Feature","properties":{"Country name":"Yemen","Regional indicator":"Middle East and North Africa","Ladder score":3.658,"Logged GDP per capita":7.578,"Social support":0.832,"Healthy life expectancy":57.122,"Freedom to make life choices":0.602,"Generosity":-0.147,"Perceptions of corruption":0.8},"geometry":{"type":"Point","coordinates":[45.874382,15.328226]}},{"type":"Feature","properties":{"Country name":"Zambia","Regional indicator":"Sub-Saharan Africa","Ladder score":4.073,"Logged GDP per capita":8.145,"Social support":0.708,"Healthy life expectancy":55.809,"Freedom to make life choices":0.782,"Generosity":0.061,"Perceptions of corruption":0.823},"geometry":{"type":"Point","coordinates":[25.940824,-14.936526]}},{"type":"Feature","properties":{"Country name":"Zimbabwe","Regional indicator":"Sub-Saharan Africa","Ladder score":3.145,"Logged GDP per capita":7.943,"Social support":0.75,"Healthy life expectancy":56.201,"Freedom to make life choices":0.677,"Generosity":-0.047,"Perceptions of corruption":0.821},"geometry":{"type":"Point","coordinates":[29.946601,-18.919508]}}]}